[
  {
    "region": "서울",
    "name": "서울금연지원센터",
    "add": "서울특별시 서초구 반도대로222 가톨릭대학교 의생명산업연구원 2001호(2층)",
    "tel": "02-592-9030",
    "lat": 37.5000744557682,
    "lon": 127.005238316462
  },
  {
    "region": "부산",
    "name": "부산금연지원센터",
    "add": "부산광역시 서구 구덕로193번길 12-2 (부민동2가) 부산장애인구강진료센터 5층",
    "tel": "051-242-9030",
    "lat": 35.1008208738374,
    "lon": 129.018729457763
  },
  {
    "region": "대구",
    "name": "대구금연지원센터",
    "add": "대구광역시 남구 현충로 170 (대명동) 영남대학교병원 권역 호흡기 전문질환센터 1층",
    "tel": "053-623-9030",
    "lat": 35.8467157127139,
    "lon": 128.585384312231
  },
  {
    "region": "인천",
    "name": "인천금연지원센터",
    "add": "인천광역시 중구 인항로27 인하대학교병원 3층",
    "tel": "032-451-9030",
    "lat": 37.4588371476034,
    "lon": 126.634288533153
  },
  {
    "region": "광주",
    "name": "광주금연지원센터",
    "add": "광주광역시 동구 필문대로365 조선대학교병원 본관 2층",
    "tel": "062-222-9030",
    "lat": 35.1389542963677,
    "lon": 126.92652544156
  },
  {
    "region": "대전",
    "name": "대전세종금연지원센터",
    "add": "대전광역시 중구 문화로 266 (문화동) 충남대학교 의과대학 의학도서동(M3) 402호",
    "tel": "042-580-8383",
    "lat": 36.3167319051998,
    "lon": 127.413509694245
  },
  {
    "region": "울산",
    "name": "울산금연지원센터",
    "add": "울산광역시 동구 대학병원로 30 (서부동) 4층 울산금연지원센터",
    "tel": "052-233-9030",
    "lat": 35.5199631271922,
    "lon": 129.428748946255
  },
  {
    "region": "경기",
    "name": "경기남부금연지원센터",
    "add": "경기도 안양시 동안구 관평로176번길 14 한림대학교 성심병원 교수연구동(제4별관) 6층",
    "tel": "031-385-9030",
    "lat": 37.3915033789562,
    "lon": 126.961817315424
  },
  {
    "region": "경기",
    "name": "경기북부금연지원센터",
    "add": "경기도 고양시 일산동구 일산로 323 국가암 예방검진동 6층",
    "tel": "031-924-9030",
    "lat": 37.6632510158068,
    "lon": 126.783368121919
  },
  {
    "region": "강원",
    "name": "강원금연지원센터",
    "add": "강원도 원주시 일산로29 4층",
    "tel": "033-746-9030",
    "lat": 37.3484817376412,
    "lon": 127.947812299444
  },
  {
    "region": "충북",
    "name": "충북금연지원센터",
    "add": "충청북도 청주시 서원구 충대로 1 (개신동) 충북대학교 자연대 3호관(S1-3) 105호",
    "tel": "043-278-9030",
    "lat": 36.6266446456238,
    "lon": 127.456480320002
  },
  {
    "region": "충남",
    "name": "충남금연지원센터",
    "add": "충청남도 천안시 동남구 순천향6길 31 순천향의과대학 학술관 519호",
    "tel": "041-577-9030",
    "lat": 36.8027298563385,
    "lon": 127.134624042461
  },
  {
    "region": "전북",
    "name": "전북금연지원센터",
    "add": "전라북도 익산시 익산대로 460 전북금연지원센터",
    "tel": "1833-9030",
    "lat": 35.9657497132496,
    "lon": 126.955500204528
  },
  {
    "region": "전남",
    "name": "전남금연지원센터",
    "add": "전라남도 화순군 화순읍 서양로 322 화순전남대학교병원 광주전남지역암센터 1층",
    "tel": "061-372-9030",
    "lat": 35.0586032771309,
    "lon": 127.003231639839
  },
  {
    "region": "경북",
    "name": "경북금연지원센터",
    "add": "경상북도 안동시 태사2길 55 안동의료원 5층",
    "tel": "080-888-9030",
    "lat": 36.5682477648293,
    "lon": 128.732093677038
  },
  {
    "region": "경남",
    "name": "경남금연지원센터",
    "add": "경상남도 진주시 진주대로816번길 20 (주약동) 2층 경남금연지원센터",
    "tel": "055-759-9030",
    "lat": 35.17713706497,
    "lon": 128.095387407123
  },
  {
    "region": "제주",
    "name": "제주금연지원센터",
    "add": "제주특별자치도 제주시 서광로175 아세아빌딩 5층",
    "tel": "064-758-9030",
    "lat": 33.4613288300025,
    "lon": 126.533239912257
  }
]
