[
  {
    "region": "서울",
    "name": "서울금연지원센터",
    "add": "서울특별시 서초구 반도대로222 가톨릭대학교 의생명산업연구원 2001호(2층)",
    "tel": "02-592-9030",
    "lat": 37.5000744557682,
    "lon": 127.005238316462,
    "url": "http://kko.to/E7UmUXtN9d"
  },
  {
    "region": "부산",
    "name": "부산금연지원센터",
    "add": "부산광역시 서구 구덕로193번길 12-2 (부민동2가) 부산장애인구강진료센터 5층",
    "tel": "051-242-9030",
    "lat": 35.1008208738374,
    "lon": 129.018729457763,
    "url": "http://kko.to/4Ykaaryz3J"
  },
  {
    "region": "대구",
    "name": "대구금연지원센터",
    "add": "대구광역시 남구 현충로 170 (대명동) 영남대학교병원 권역 호흡기 전문질환센터 1층",
    "tel": "053-623-9030",
    "lat": 35.8467157127139,
    "lon": 128.585384312231,
    "url": "http://kko.to/ALX7E2T4TN"
  },
  {
    "region": "인천",
    "name": "인천금연지원센터",
    "add": "인천광역시 중구 인항로27 인하대학교병원 3층",
    "tel": "032-451-9030",
    "lat": 37.4588371476034,
    "lon": 126.634288533153,
    "url": "http://kko.to/k_bAzt1prc"
  },
  {
    "region": "광주",
    "name": "광주금연지원센터",
    "add": "광주광역시 동구 필문대로365 조선대학교병원 본관 2층",
    "tel": "062-222-9030",
    "lat": 35.1389542963677,
    "lon": 126.92652544156,
    "url": "http://kko.to/R5I6ZaTRWH"
  },
  {
    "region": "대전",
    "name": "대전세종금연지원센터",
    "add": "대전광역시 중구 문화로 266 (문화동) 충남대학교 의과대학 의학도서동(M3) 402호",
    "tel": "042-580-8383",
    "lat": 36.3167319051998,
    "lon": 127.413509694245,
    "url": "http://kko.to/IzsHvttoTB"
  },
  {
    "region": "울산",
    "name": "울산금연지원센터",
    "add": "울산광역시 동구 대학병원로 30 (서부동) 4층 울산금연지원센터",
    "tel": "052-233-9030",
    "lat": 35.5207285211618,
    "lon": 129.428683846394,
    "url": "http://kko.to/HTsA0eq3pX"
  },
  {
    "region": "경기",
    "name": "경기남부금연지원센터",
    "add": "경기도 안양시 동안구 관평로176번길 14 한림대학교 성심병원 교수연구동(제4별관) 6층",
    "tel": "031-385-9030",
    "lat": 37.3915033789562,
    "lon": 126.961817315424,
    "url": "http://kko.to/Trpd7aN65y"
  },
  {
    "region": "경기",
    "name": "경기북부금연지원센터",
    "add": "경기도 고양시 일산동구 일산로 323 국가암 예방검진동 6층",
    "tel": "031-924-9030",
    "lat": 37.6632510158068,
    "lon": 126.783368121919,
    "url": "http://kko.to/_sKiUyy8zy"
  },
  {
    "region": "강원",
    "name": "강원금연지원센터",
    "add": "강원도 원주시 일산로29 4층",
    "tel": "033-746-9030",
    "lat": 37.3484817376412,
    "lon": 127.947812299444,
    "url": "http://kko.to/nuv4yA8y7C"
  },
  {
    "region": "충북",
    "name": "충북금연지원센터",
    "add": "충청북도 청주시 서원구 충대로 1 (개신동) 충북대학교 자연대 3호관(S1-3) 105호",
    "tel": "043-278-9030",
    "lat": 36.6266446456238,
    "lon": 127.456480320002,
    "url": "http://kko.to/u3FNtZaP-2"
  },
  {
    "region": "충남",
    "name": "충남금연지원센터",
    "add": "충청남도 천안시 동남구 순천향6길 31 순천향의과대학 학술관 519호",
    "tel": "041-577-9030",
    "lat": 36.8027298563385,
    "lon": 127.134624042461,
    "url": "http://kko.to/J1F8aTmv4V"
  },
  {
    "region": "전북",
    "name": "전북금연지원센터",
    "add": "전라북도 익산시 익산대로 460 전북금연지원센터",
    "tel": "1833-9030",
    "lat": 35.9657497132496,
    "lon": 126.955500204528,
    "url": "http://kko.to/1stynVorBd"
  },
  {
    "region": "전남",
    "name": "전남금연지원센터",
    "add": "전라남도 화순군 화순읍 서양로 322 화순전남대학교병원 광주전남지역암센터 1층",
    "tel": "061-372-9030",
    "lat": 35.0585960661329,
    "lon": 127.003231639554,
    "url": "http://kko.to/86qCHJN_Az"
  },
  {
    "region": "경북",
    "name": "경북금연지원센터",
    "add": "경상북도 안동시 태사2길 55 안동의료원 5층",
    "tel": "080-888-9030",
    "lat": 36.5682477648293,
    "lon": 128.732093677038,
    "url": "http://kko.to/ZwmVgoG-D_"
  },
  {
    "region": "경남",
    "name": "경남금연지원센터",
    "add": "경상남도 진주시 진주대로816번길 20 (주약동) 2층 경남금연지원센터",
    "tel": "055-759-9030",
    "lat": 35.17713706497,
    "lon": 128.095387407123,
    "url": "http://kko.to/gZFkfPlap7"
  },
  {
    "region": "제주",
    "name": "제주금연지원센터",
    "add": "제주특별자치도 제주시 서광로175 아세아빌딩 5층",
    "tel": "064-758-9030",
    "lat": 33.4613288300025,
    "lon": 126.533239912257,
    "url": "http://kko.to/o_dHJl9TgR"
  },
  {
    "region": "서울",
    "name": "한국건강증진개발원",
    "add": "서울 광진구 능동로 400 보건복지행정타운 8~10층",
    "tel": "02-3781-3500",
    "lat": 37.5648875892674,
    "lon": 127.084492300606,
    "url": "http://kko.to/EyGgnzIVsY"
  },
  {
    "region": "서울",
    "name": "서울 강북구보건소",
    "add": "서울특별시 강북구 한천로 897, (한천로 897) (번동, 번2동주민센터)",
    "tel": "02-901-7668",
    "lat": 37.632154225775,
    "lon": 127.038745036729,
    "url": "http://kko.to/RNmq4xB_cE"
  },
  {
    "region": "서울",
    "name": "서울 관악구보건소",
    "add": "서울특별시 관악구 관악로 145 (봉천동, 관악구청)",
    "tel": "02-879-7043",
    "lat": 37.4786636327244,
    "lon": 126.950896885488,
    "url": "http://kko.to/ERK02ZcxHB"
  },
  {
    "region": "서울",
    "name": "서울 강동구보건소",
    "add": "서울특별시 강동구 성내로 45 (541-2번지, 성내동)",
    "tel": "02-3425-6750",
    "lat": 37.5292615673201,
    "lon": 127.125610151521,
    "url": "http://kko.to/hCv2qVaAM1"
  },
  {
    "region": "서울",
    "name": "서울 광진구보건소",
    "add": "서울특별시 광진구 자양로 117",
    "tel": "02-450-1569",
    "lat": 37.538537023407,
    "lon": 127.081905419506,
    "url": "http://kko.to/oivjFJ-iz5"
  },
  {
    "region": "서울",
    "name": "서울 강남구보건소",
    "add": "서울특별시 강남구 선릉로 668 (삼성동, 강남구립국제교육원)",
    "tel": "02-3423-7236",
    "lat": 37.5163103117045,
    "lon": 127.042304720872,
    "url": "http://kko.to/Aac8CAWIiQ"
  },
  {
    "region": "서울",
    "name": "서울 구로구보건소",
    "add": "서울특별시 구로구 구로중앙로28길 66 (109-4번지, 구로동)",
    "tel": "02-860-2177",
    "lat": 37.5001056126747,
    "lon": 126.889316787858,
    "url": "http://kko.to/NrPS4dT9MY"
  },
  {
    "region": "서울",
    "name": "서울 강서구보건소",
    "add": "서울특별시 강서구 공항대로 561 (275-12번지, 염창동)",
    "tel": "02-2600-5920",
    "lat": 37.5493943356669,
    "lon": 126.868534908135,
    "url": "http://kko.to/O5t9wwr785"
  },
  {
    "region": "서울",
    "name": "서울 중랑구보건소",
    "add": "서울특별시 중랑구 봉화산로 179 (662번지, 신내동)",
    "tel": "02-2094-0126",
    "lat": 37.6068711733092,
    "lon": 127.092852404839,
    "url": "http://kko.to/gVCctHWsbZ"
  },
  {
    "region": "서울",
    "name": "서울 종로구보건소",
    "add": "서울특별시 종로구 자하문로19길 36 (자수궁길) (45-30번지, 옥인동)",
    "tel": "02-2148-3621",
    "lat": 37.5818272851704,
    "lon": 126.969215045478,
    "url": "http://kko.to/HYPi7vU730"
  },
  {
    "region": "서울",
    "name": "서울 중구보건소",
    "add": "서울특별시 중구 무학동 다산로39길 16",
    "tel": "02-3396-6340",
    "lat": 37.5645744807449,
    "lon": 127.015085585303,
    "url": "http://kko.to/GrZH-maKFr"
  },
  {
    "region": "서울",
    "name": "서울 마포구보건소",
    "add": "서울특별시 마포구 월드컵로 212 (성산동)",
    "tel": "02-3153-9115",
    "lat": 37.5669421072265,
    "lon": 126.901850051589,
    "url": "http://kko.to/dd7YbIFeJP"
  },
  {
    "region": "서울",
    "name": "서울 성북구보건소",
    "add": "서울특별시 성북구 화랑로 63 성북구보건소(트리즘) (하월곡동)",
    "tel": "02-2241-5956",
    "lat": 37.6027024687412,
    "lon": 127.039522471533,
    "url": "http://kko.to/YQSqayRMvr"
  },
  {
    "region": "서울",
    "name": "서울 서초구보건소",
    "add": "서울특별시 서초구 남부순환로 2584 (서초동, 서초구보건소)",
    "tel": "02-2155-8078",
    "lat": 37.4835922001418,
    "lon": 127.033498863973,
    "url": "http://kko.to/wVYU9m-4sG"
  },
  {
    "region": "서울",
    "name": "서울 서대문구보건소",
    "add": "서울특별시 서대문구 연희동 165-2번지 (연희동 165-2)",
    "tel": "02-330-8598",
    "lat": 37.5786065549923,
    "lon": 126.936263672732,
    "url": "http://kko.to/gQu7BUxQ9v"
  },
  {
    "region": "서울",
    "name": "서울 성동구보건소",
    "add": "서울특별시 성동구 마장로23길 10",
    "tel": "02-2286-7131",
    "lat": 37.5670863545086,
    "lon": 127.033210228834,
    "url": "http://kko.to/RTVqwxt1u8"
  },
  {
    "region": "서울",
    "name": "서울 양천구보건소",
    "add": "서울특별시 양천구 목동서로 339 양천구보건소",
    "tel": "02-2620-3904",
    "lat": 37.5175860068713,
    "lon": 126.865853321246,
    "url": "http://kko.to/wuE7Oypy3O"
  },
  {
    "region": "서울",
    "name": "서울 영등포구보건소",
    "add": "서울특별시 영등포구 당산로 123 (당산동3가, 영등포구보건소)",
    "tel": "02-2670-4780",
    "lat": 37.5263376603571,
    "lon": 126.895500155031,
    "url": "http://kko.to/FmY85ogs5D"
  },
  {
    "region": "서울",
    "name": "서울 용산구보건소",
    "add": "서울특별시 용산구 녹사평대로 150",
    "tel": "02-2199-8153",
    "lat": 37.5325824094921,
    "lon": 126.990609479609,
    "url": "http://kko.to/wuwCgw2-fM"
  },
  {
    "region": "서울",
    "name": "서울 도봉구보건소",
    "add": "서울특별시 도봉구 방학로3길 117 (쌍문동, 쌍문2동주민센터)",
    "tel": "02-2091-4628",
    "lat": 37.6579115232367,
    "lon": 127.038835481376,
    "url": "http://kko.to/jDSC4onN2U"
  },
  {
    "region": "서울",
    "name": "서울 동대문구보건소",
    "add": "서울특별시 동대문구 천호대로 145 (39-9번지, 용두동)",
    "tel": "02-2127-5460",
    "lat": 37.5746885747512,
    "lon": 127.040218573125,
    "url": "http://kko.to/Vnbr1bITVV"
  },
  {
    "region": "서울",
    "name": "서울 동작구보건소",
    "add": "서울특별시 동작구 장승배기로10길 42 (176-3번지, 상도동)",
    "tel": "02-820-1454",
    "lat": 37.5044495921672,
    "lon": 126.941108480318,
    "url": "http://kko.to/e1T3i3VYXo"
  },
  {
    "region": "서울",
    "name": "서울 은평구보건소",
    "add": "서울특별시 은평구 은평로 195 (녹번동, 은평구청)",
    "tel": "02-351-8240",
    "lat": 37.6024533608046,
    "lon": 126.92881449391,
    "url": "http://kko.to/B7FaYv3t2R"
  },
  {
    "region": "서울",
    "name": "서울 노원구보건소",
    "add": "서울특별시 노원구 노해로 437 ",
    "tel": "02-2116-4538",
    "lat": 37.6546534112416,
    "lon": 127.056979182849,
    "url": "http://kko.to/E4I-lmd2rK"
  },
  {
    "region": "서울",
    "name": "서울 송파구보건소",
    "add": "서울특별시 송파구 올림픽로 326 (신천동)",
    "tel": "02-2147-3514",
    "lat": 37.5145687337068,
    "lon": 127.106551112164,
    "url": "http://kko.to/eg14YiOx1C"
  },
  {
    "region": "서울",
    "name": "서울 금천구보건소",
    "add": "서울특별시 금천구 시흥대로73길 70 (시흥동, 금천구청)",
    "tel": "02-2627-2677",
    "lat": 37.4570687377675,
    "lon": 126.896062276653,
    "url": "http://kko.to/PZBI6SjmbA"
  },
  {
    "region": "경기",
    "name": "경기 성남시 분당구보건소",
    "add": "경기도 성남시 분당구 양현로 306 분당구보건소",
    "tel": "031-729-3975",
    "lat": 37.411067982013,
    "lon": 127.124739316973,
    "url": "http://kko.to/ankQllyBUY"
  },
  {
    "region": "경기",
    "name": "경기 안양시 동안구보건소",
    "add": "경기도 안양시 동안구 비산동 1111번지 (비산동)",
    "tel": "031-8045-4823",
    "lat": 37.3930315565782,
    "lon": 126.952041430621,
    "url": "http://kko.to/SpYEoHQpeQ"
  },
  {
    "region": "경기",
    "name": "경기 동두천시보건소",
    "add": "경기도 동두천시 중앙로 167",
    "tel": "031-860-3410",
    "lat": 37.8964600652918,
    "lon": 127.051830571849,
    "url": "http://kko.to/IIgLgzCJ65"
  },
  {
    "region": "경기",
    "name": "경기 안산시 단원보건소",
    "add": "경기도 안산시 단원구 화랑로 250 (초지동) 387 안산시단원보건소(515번지, 고잔동)",
    "tel": "031-481-6752",
    "lat": 37.3206308951906,
    "lon": 126.815177859546,
    "url": "http://kko.to/9bGkh8R4jK"
  },
  {
    "region": "경기",
    "name": "경기 고양시 덕양구보건소",
    "add": "경기도 고양시 덕양구 원당로33번길 28 덕양구보건소 (603번지, 주교동)",
    "tel": "031-8075-4052",
    "lat": 37.6577862781046,
    "lon": 126.831163234935,
    "url": "http://kko.to/LgqRRnwUP6"
  },
  {
    "region": "경기",
    "name": "경기 의정부시보건소",
    "add": "경기도 의정부시 범골로 131 (516번지, 의정부동)",
    "tel": "031-870-6063",
    "lat": 37.7361484433568,
    "lon": 127.039511620119,
    "url": "http://kko.to/UDb-6SXJaU"
  },
  {
    "region": "경기",
    "name": "경기 의왕시보건소",
    "add": "경기도 의왕시 오봉로 34 (108번지, 고천동)",
    "tel": "031-345-3547",
    "lat": 37.3437662759862,
    "lon": 126.972111295192,
    "url": "http://kko.to/pDerd6Is1I"
  },
  {
    "region": "경기",
    "name": "경기 과천시보건소",
    "add": "경기도 과천시 관문로 69 과천시청 관문로 69 (중앙동) (1-3번지, 중앙동)",
    "tel": "02-3679-7575",
    "lat": 37.4373611739497,
    "lon": 126.973197515168,
    "url": "http://kko.to/sFvhN6f0cW"
  },
  {
    "region": "경기",
    "name": "경기 안성시보건소",
    "add": "경기도 안성시 강변로74번길 18 (67-21번지, 도기동)",
    "tel": "031-678-5352",
    "lat": 37.0001821425771,
    "lon": 127.269807679275,
    "url": "http://kko.to/RG13vqTJ88"
  },
  {
    "region": "경기",
    "name": "경기 구리시보건소",
    "add": "경기도 구리시 건원대로34번길 84 (인창동)",
    "tel": "031-550-8661",
    "lat": 37.6047246382622,
    "lon": 127.145070611983,
    "url": "http://kko.to/upBw856zTB"
  },
  {
    "region": "경기",
    "name": "경기 화성시보건소",
    "add": "경기도 화성시 향남읍 3.1만세로 1055 (화성시보건소)",
    "tel": "031-5189-3595",
    "lat": 37.1292424552552,
    "lon": 126.904547338934,
    "url": "http://kko.to/ungkHv-t26"
  },
  {
    "region": "경기",
    "name": "경기 고양시 일산서구보건소",
    "add": "경기도 고양시 일산서구 일산동 일중로 54(일산동 1680-6)",
    "tel": "031-8075-4204",
    "lat": 37.6844747241684,
    "lon": 126.775801389943,
    "url": "http://kko.to/WmORcNNwEr"
  },
  {
    "region": "경기",
    "name": "경기 고양시 일산동구보건소",
    "add": "경기도 고양시 일산동구 중앙로 1228 (1010번지, 마두동)",
    "tel": "031-8075-4129",
    "lat": 37.6556873453469,
    "lon": 126.776159956366,
    "url": "http://kko.to/03MvznSWiA"
  },
  {
    "region": "경기",
    "name": "경기 수원시 장안구보건소",
    "add": "경기도 수원시 장안구 송원로 101 (조원동, 장안구청)",
    "tel": "031-228-5828",
    "lat": 37.3043615365635,
    "lon": 127.010286994918,
    "url": "http://kko.to/hV9JS5XpgR"
  },
  {
    "region": "경기",
    "name": "경기 성남시 중원구보건소",
    "add": "경기도 성남시 중원구 금상로 137 (269-10번지, 상대원동)",
    "tel": "031-729-3918",
    "lat": 37.4419874313097,
    "lon": 127.170746342105,
    "url": "http://kko.to/hRl6LAYD1w"
  },
  {
    "region": "경기",
    "name": "경기 김포시보건소",
    "add": "경기도 김포시 사우중로 108 김포보건소 (869번지, 사우동)",
    "tel": "031-980-5018",
    "lat": 37.6237156470937,
    "lon": 126.722947939744,
    "url": "http://kko.to/R2hx_pQFzg"
  },
  {
    "region": "경기",
    "name": "경기 수원시 권선구보건소",
    "add": "경기도 수원시 권선구 탑동 호매실로 22-50",
    "tel": "031-228-6421",
    "lat": 37.2587406337726,
    "lon": 126.971119103308,
    "url": "http://kko.to/sXAxDVzRXZ"
  },
  {
    "region": "경기",
    "name": "경기 안양시 만안구보건소",
    "add": "경기도 안양시 만안구 문예로 48 ",
    "tel": "031-8045-3167",
    "lat": 37.3858321097594,
    "lon": 126.932949339361,
    "url": "http://kko.to/gcEK24en9h"
  },
  {
    "region": "경기",
    "name": "경기 오산시보건소",
    "add": "경기도 오산시 경기동로 59",
    "tel": "031-8036-6078",
    "lat": 37.1594300479297,
    "lon": 127.077815500186,
    "url": "http://kko.to/1SchqPk6Lz"
  },
  {
    "region": "경기",
    "name": "경기 포천시보건소",
    "add": "경기도 포천시 포천로 1612 (164-3번지, 신읍동)",
    "tel": "031-538-3676",
    "lat": 37.9007645424759,
    "lon": 127.201235393914,
    "url": "http://kko.to/sUx6uHQMS4"
  },
  {
    "region": "경기",
    "name": "경기 평택시 평택보건소",
    "add": "경기도 평택시 평택5로 56, (평택5로 56) (비전동)",
    "tel": "031-8024-4417",
    "lat": 36.9909206253921,
    "lon": 127.11188211677,
    "url": "http://kko.to/hoOJAU74gp"
  },
  {
    "region": "경기",
    "name": "경기 안산시 상록수보건소",
    "add": "경기도 안산시 상록구 차돌배기로1길 5 (사동, 상록수보건소)",
    "tel": "031-481-5899",
    "lat": 37.3003247954095,
    "lon": 126.845026634028,
    "url": "http://kko.to/zhByzhIZph"
  },
  {
    "region": "경기",
    "name": "경기 소사보건소",
    "add": "경기도 부천시 경인옛로 73 (소사본동) ",
    "tel": "032-625-4287",
    "lat": 37.4800005665231,
    "lon": 126.800192358326,
    "url": "http://kko.to/-hV5tqsM_6"
  },
  {
    "region": "경기",
    "name": "경기 평택시 송탄보건소",
    "add": "경기도 평택시 서정로 295, (서정로 295) (서정동)",
    "tel": "031-8024-7262",
    "lat": 37.0655136471704,
    "lon": 127.066263938083,
    "url": "http://kko.to/May79UnBx7"
  },
  {
    "region": "경기",
    "name": "경기 부천시보건소",
    "add": "경기도 부천시 옥산로10번길 16 (중동) ",
    "tel": "032-625-4412",
    "lat": 37.4942672384774,
    "lon": 126.780953241081,
    "url": "http://kko.to/o6fPCG3sHY"
  },
  {
    "region": "경기",
    "name": "경기 양주시보건소",
    "add": "경기도 양주시 부흥로 1533 ",
    "tel": "031-8082-4180",
    "lat": 37.7855440141901,
    "lon": 127.04662629934,
    "url": "http://kko.to/oTClzGS4Zq"
  },
  {
    "region": "경기",
    "name": "경기 연천군보건의료원",
    "add": "경기도 연천군 전곡읍 은대성로 95 (577-36번지, 은대리)",
    "tel": "031-839-4067",
    "lat": 38.0235164183733,
    "lon": 127.060980991873,
    "url": "http://kko.to/GdmlvUBC_7"
  },
  {
    "region": "경기",
    "name": "경기 여주시보건소",
    "add": "경기도 여주시 여흥로160번길 14 (상동, 여주시보건소)",
    "tel": "031-887-3632",
    "lat": 37.3135365290346,
    "lon": 127.602414383442,
    "url": "http://kko.to/5YfMlnHsA_"
  },
  {
    "region": "경기",
    "name": "경기 용인시 처인구보건소",
    "add": "경기도 용인시 처인구 중부대로 1199 (삼가동, 용인시청)",
    "tel": "031-324-4957",
    "lat": 37.2409815535266,
    "lon": 127.176120785174,
    "url": "http://kko.to/XELiN2Nipc"
  },
  {
    "region": "경기",
    "name": "경기 용인시 수지구보건소",
    "add": "경기도 용인시 수지구 포은대로 435",
    "tel": "031-324-8897",
    "lat": 37.3221556550897,
    "lon": 127.096815305042,
    "url": "http://kko.to/Knhpbaevon"
  },
  {
    "region": "경기",
    "name": "경기 양평군보건소",
    "add": "경기도 양평군 양평읍 마유산로 17",
    "tel": "031-770-3529",
    "lat": 37.4970286111901,
    "lon": 127.486676202999,
    "url": "http://kko.to/tIt8zBZvgC"
  },
  {
    "region": "경기",
    "name": "경기 광명시보건소",
    "add": "경기도 광명시 오리로 613 오리로613 (230-1번지, 하안동)",
    "tel": "02-2680-2688",
    "lat": 37.4566739134499,
    "lon": 126.878842441903,
    "url": "http://kko.to/3Hn2rV9rGT"
  },
  {
    "region": "경기",
    "name": "경기 군포시보건소",
    "add": "경기도 군포시 군포로 221 (군포로221) (770-1번지, 부곡동)",
    "tel": "031-461-1720",
    "lat": 37.3331286355188,
    "lon": 126.925937003499,
    "url": "http://kko.to/qh0oeBQIOw"
  },
  {
    "region": "경기",
    "name": "경기 가평군보건소",
    "add": "경기도 가평군 가평읍 가화로 155-18 (624-1번지, 읍내리)",
    "tel": "031-580-2841",
    "lat": 37.8334760714376,
    "lon": 127.510720133506,
    "url": "http://kko.to/cP6kBCAKC0"
  },
  {
    "region": "경기",
    "name": "경기 화성시 동탄보건소",
    "add": "경기도 화성시 노작로 226-9 (60번지, 석우동)",
    "tel": "031-5189-4371",
    "lat": 37.1997731686947,
    "lon": 127.086624802324,
    "url": "http://kko.to/HjMvdo2uFk"
  },
  {
    "region": "경기",
    "name": "경기 화성시 동부보건소",
    "add": "경기도 화성시 떡전골로 72-3 리치프라자 2층 ,3층 (400-6번지, 병점동)",
    "tel": "031-5189-4817",
    "lat": 37.2047951339916,
    "lon": 127.034880218484,
    "url": "http://kko.to/61Qgo1SnhA"
  },
  {
    "region": "경기",
    "name": "경기 하남시보건소",
    "add": "경기도 하남시 대청로 10",
    "tel": "031-790-6033",
    "lat": 37.5390715468929,
    "lon": 127.215516276717,
    "url": "http://kko.to/iRQcIoFky6"
  },
  {
    "region": "경기",
    "name": "경기 이천시보건소",
    "add": "경기도 이천시 증신로153번길 13 (152-2번지, 증포동)",
    "tel": "031-644-4065",
    "lat": 37.2889585414693,
    "lon": 127.452335752333,
    "url": "http://kko.to/besDkJUN2M"
  },
  {
    "region": "경기",
    "name": "경기 파주시보건소",
    "add": "경기도 파주시 후곡로 13 (953-1번지, 금촌동)",
    "tel": "031-940-5561",
    "lat": 37.7563469353059,
    "lon": 126.773905191932,
    "url": "http://kko.to/Pt3tFl3li3"
  },
  {
    "region": "경기",
    "name": "경기 시흥시보건소",
    "add": "경기도 시흥시 호현로 55 시흥시보건소",
    "tel": "031-310-5840",
    "lat": 37.4452955421617,
    "lon": 126.784847926019,
    "url": "http://kko.to/zMfBN4AuTN"
  },
  {
    "region": "경기",
    "name": "경기 성남시 수정구보건소",
    "add": "경기도 성남시 수정구 희망로 526 (2177번지, 산성동)",
    "tel": "031-729-3887",
    "lat": 37.4442790103134,
    "lon": 127.144140993239,
    "url": "http://kko.to/koadzkBjhh"
  },
  {
    "region": "경기",
    "name": "경기 부천시 오정보건소",
    "add": "경기도 부천시 오정구 성오로 172 (오정동, 오정구청)",
    "tel": "031-625-4366",
    "lat": 37.5282626995312,
    "lon": 126.796411794014,
    "url": "http://kko.to/Ig68QhT2Hm"
  },
  {
    "region": "경기",
    "name": "경기 남양주보건소",
    "add": "경기도 남양주시 경춘로 522 남양주시청제2청사 (경춘로522) (3159-7번지, 다산동)",
    "tel": "031-590-4456",
    "lat": 37.6106394416076,
    "lon": 127.171416577919,
    "url": "http://kko.to/-y1SAmdSUX"
  },
  {
    "region": "경기",
    "name": "경기 수원시 영통구보건소",
    "add": "경기도 수원시 영통구 영통로 396(영통동)",
    "tel": "031-228-8828",
    "lat": 37.2569216739814,
    "lon": 127.069497350981,
    "url": "http://kko.to/SZ5X1_qaXH"
  },
  {
    "region": "경기",
    "name": "경기 광주시보건소",
    "add": "경기도 광주시 파발로 194 (115번지, 경안동)",
    "tel": "031-760-2365",
    "lat": 37.4165307579723,
    "lon": 127.250332527742,
    "url": "http://kko.to/wALemxqBAS"
  },
  {
    "region": "경기",
    "name": "경기 수원시 팔달구보건소",
    "add": "경기도 수원시 팔달구 팔달산로 6 (56-1번지, 교동)",
    "tel": "031-228-7756",
    "lat": 37.2714770197662,
    "lon": 127.012519418104,
    "url": "http://kko.to/sKc-8xRis7"
  },
  {
    "region": "경기",
    "name": "경기 남양주 풍양보건소",
    "add": "경기도 남양주시 진접읍 해밀예당1로 30-39 ",
    "tel": "031-590-4771",
    "lat": 37.7032917107114,
    "lon": 127.197416337628,
    "url": "http://kko.to/z_Zp5yPkHg"
  },
  {
    "region": "경기",
    "name": "경기 용인시 기흥구보건소",
    "add": "경기도 용인시 기흥구 신갈로58번길 11",
    "tel": "031-324-6919",
    "lat": 37.2726012261985,
    "lon": 127.106394070204,
    "url": "http://kko.to/X9VZNgwihw"
  }
]